     3.04           OBSERVATION DATA    M                   RINEX VERSION / TYPE
JPS2RIN v.2.1.223   JAVAD GNSS          20231124 001502 UTC PGM / RUN BY / DATE
DSN                 JPL                                     OBSERVER / AGENCY
MADR                                                        MARKER NAME
13407S012                                                   MARKER NUMBER
01326               JAVAD TRE_G3TH DELTA4.1.01              REC # / TYPE / VERS
  4849202.3940  -360328.9929  4114913.1862                  APPROX POSITION XYZ
451-U               AOAD/M_T        NONE                    ANT # / TYPE
        0.0254        0.0000        0.0000                  ANTENNA: DELTA H/E/N
G   18 C1C L1C S1C C1W L1W S1W C2X L2X S2X C2W L2W S2W C5X  SYS / # / OBS TYPES
       L5X S5X C1X L1X S1X                                  SYS / # / OBS TYPES
R   12 C1C L1C S1C C1P L1P S1P C2C L2C S2C C2P L2P S2P      SYS / # / OBS TYPES
E    9 C1X L1X S1X C7X L7X S7X C5X L5X S5X                  SYS / # / OBS TYPES
 25 R01  1 R02 -4 R03  5 R04  6 R05  1 R06 -4 R07  5 R08  6 GLONASS SLOT / FRQ #
    R09 -2 R10 -7 R11  0 R12 -1 R13 -2 R14 -7 R15  0 R16 -1 GLONASS SLOT / FRQ #
    R17  4 R18 -3 R19  3 R20  2 R21  4 R22 -3 R23  3 R24  2 GLONASS SLOT / FRQ #
    R25 -5                                                  GLONASS SLOT / FRQ #
 C1C    0.000 C1P    0.000 C2C    0.000 C2P    0.000        GLONASS COD/PHS/BIS
    30.000                                                  INTERVAL
  2023    11    23     0     0    0.0000000     GPS         TIME OF FIRST OBS
  2023    11    23    23    59   30.0000000     GPS         TIME OF LAST OBS
    18                                                      LEAP SECONDS
G L1C  0.00000  32 G01 G02 G03 G04 G05 G06 G07 G08 G09 G10  SYS / PHASE SHIFT
                   G11 G12 G13 G14 G15 G16 G17 G18 G19 G20  SYS / PHASE SHIFT
                   G21 G22 G23 G24 G25 G26 G27 G28 G29 G30  SYS / PHASE SHIFT
                   G31 G32                                  SYS / PHASE SHIFT
G L1W -0.25000  32 G01 G02 G03 G04 G05 G06 G07 G08 G09 G10  SYS / PHASE SHIFT
                   G11 G12 G13 G14 G15 G16 G17 G18 G19 G20  SYS / PHASE SHIFT
                   G21 G22 G23 G24 G25 G26 G27 G28 G29 G30  SYS / PHASE SHIFT
                   G31 G32                                  SYS / PHASE SHIFT
G L1X -0.25000  06 G01 G02 G03 G04 G18 G23                  SYS / PHASE SHIFT
G L2W  0.00000  32 G01 G02 G03 G04 G05 G06 G07 G08 G09 G10  SYS / PHASE SHIFT
                   G11 G12 G13 G14 G15 G16 G17 G18 G19 G20  SYS / PHASE SHIFT
                   G21 G22 G23 G24 G25 G26 G27 G28 G29 G30  SYS / PHASE SHIFT
                   G31 G32                                  SYS / PHASE SHIFT
G L2X  0.25000  25 G01 G03 G04 G05 G06 G07 G08 G09 G10 G11  SYS / PHASE SHIFT
                   G12 G14 G15 G17 G18 G23 G24 G25 G26 G27  SYS / PHASE SHIFT
                   G28 G29 G30 G31 G32                      SYS / PHASE SHIFT
G L5X  0.25000  18 G01 G03 G04 G06 G08 G09 G10 G11 G14 G18  SYS / PHASE SHIFT
                   G23 G24 G25 G26 G27 G28 G30 G32          SYS / PHASE SHIFT
R L1C  0.00000  25 R01 R02 R03 R04 R05 R06 R07 R08 R09 R10  SYS / PHASE SHIFT
                   R11 R12 R13 R14 R15 R16 R17 R18 R19 R20  SYS / PHASE SHIFT
                   R21 R22 R23 R24 R25                      SYS / PHASE SHIFT
R L1P -0.25000  25 R01 R02 R03 R04 R05 R06 R07 R08 R09 R10  SYS / PHASE SHIFT
                   R11 R12 R13 R14 R15 R16 R17 R18 R19 R20  SYS / PHASE SHIFT
                   R21 R22 R23 R24 R25                      SYS / PHASE SHIFT
R L2C  0.25000  25 R01 R02 R03 R04 R05 R06 R07 R08 R09 R10  SYS / PHASE SHIFT
                   R11 R12 R13 R14 R15 R16 R17 R18 R19 R20  SYS / PHASE SHIFT
                   R21 R22 R23 R24 R25                      SYS / PHASE SHIFT
R L2P  0.00000  24 R01 R02 R03 R04 R05 R06 R07 R08 R09 R10  SYS / PHASE SHIFT
                   R11 R12 R13 R14 R15 R16 R17 R18 R19 R20  SYS / PHASE SHIFT
                   R21 R22 R24 R25                          SYS / PHASE SHIFT
E L1X  0.50000  23 E02 E03 E04 E05 E07 E08 E09 E10 E11 E12  SYS / PHASE SHIFT
                   E13 E15 E19 E21 E24 E25 E26 E27 E30 E31  SYS / PHASE SHIFT
                   E33 E34 E36                              SYS / PHASE SHIFT
E L5X  0.25000  23 E02 E03 E04 E05 E07 E08 E09 E10 E11 E12  SYS / PHASE SHIFT
                   E13 E15 E19 E21 E24 E25 E26 E27 E30 E31  SYS / PHASE SHIFT
                   E33 E34 E36                              SYS / PHASE SHIFT
E L7X  0.25000  23 E02 E03 E04 E05 E07 E08 E09 E10 E11 E12  SYS / PHASE SHIFT
                   E13 E15 E19 E21 E24 E25 E26 E27 E30 E31  SYS / PHASE SHIFT
                   E33 E34 E36                              SYS / PHASE SHIFT
    80                                                      # OF SATELLITES
   G01   816   816   816   811   811   811   813   813   813PRN / # OF OBS
         811   811   811   811   811   811     0     0     0PRN / # OF OBS
   G02   850   850   850   827   827   827     0     0     0PRN / # OF OBS
         827   827   827     0     0     0     0     0     0PRN / # OF OBS
   G03   790   790   790   786   786   786   790   790   790PRN / # OF OBS
         786   786   786   785   785   785     0     0     0PRN / # OF OBS
   G04   738   738   738   723   723   723   738   738   738PRN / # OF OBS
         723   723   723   731   731   731   738   738   738PRN / # OF OBS
   G05   849   849   849   847   847   847   849   849   849PRN / # OF OBS
         847   847   847     0     0     0     0     0     0PRN / # OF OBS
   G06   833   833   833   829   829   829   833   833   833PRN / # OF OBS
         829   829   829   831   831   831     0     0     0PRN / # OF OBS
   G07   924   924   924   917   917   917   923   923   923PRN / # OF OBS
         917   917   917     0     0     0     0     0     0PRN / # OF OBS
   G08   804   804   804   804   804   804   804   804   804PRN / # OF OBS
         804   804   804   804   804   804     0     0     0PRN / # OF OBS
   G09   763   763   763   761   761   761   763   763   763PRN / # OF OBS
         761   761   761   763   763   763     0     0     0PRN / # OF OBS
   G10   978   978   978   927   927   927   975   975   975PRN / # OF OBS
         927   927   927   974   974   974     0     0     0PRN / # OF OBS
   G11   937   937   937   875   875   875   937   937   937PRN / # OF OBS
         875   875   875   929   929   929     0     0     0PRN / # OF OBS
   G12   802   802   802   788   788   788   801   801   801PRN / # OF OBS
         788   788   788     0     0     0     0     0     0PRN / # OF OBS
   G13   824   824   824   806   806   806     0     0     0PRN / # OF OBS
         806   806   806     0     0     0     0     0     0PRN / # OF OBS
   G14   981   981   981   958   958   958   981   981   981PRN / # OF OBS
         958   958   958   978   978   978     0     0     0PRN / # OF OBS
   G15   774   774   774   773   773   773   773   773   773PRN / # OF OBS
         773   773   773     0     0     0     0     0     0PRN / # OF OBS
   G16   779   779   779   759   759   759     0     0     0PRN / # OF OBS
         759   759   759     0     0     0     0     0     0PRN / # OF OBS
   G17   947   947   947   905   905   905   945   945   945PRN / # OF OBS
         905   905   905     0     0     0     0     0     0PRN / # OF OBS
   G18   901   901   901   888   888   888   901   901   901PRN / # OF OBS
         888   888   888   900   900   900   904   904   904PRN / # OF OBS
   G19   939   939   939   898   898   898     0     0     0PRN / # OF OBS
         898   898   898     0     0     0     0     0     0PRN / # OF OBS
   G20   783   783   783   749   749   749     0     0     0PRN / # OF OBS
         749   749   749     0     0     0     0     0     0PRN / # OF OBS
   G21   832   832   832   798   798   798     0     0     0PRN / # OF OBS
         798   798   798     0     0     0     0     0     0PRN / # OF OBS
   G22   970   970   970   883   883   883     0     0     0PRN / # OF OBS
         883   883   883     0     0     0     0     0     0PRN / # OF OBS
   G23   906   906   906   883   883   883   905   905   905PRN / # OF OBS
         883   883   883   901   901   901   906   906   906PRN / # OF OBS
   G24   786   786   786   785   785   785   785   785   785PRN / # OF OBS
         785   785   785   783   783   783     0     0     0PRN / # OF OBS
   G25   853   853   853   823   823   823   852   852   852PRN / # OF OBS
         823   823   823   847   847   847     0     0     0PRN / # OF OBS
   G26   797   797   797   796   796   796   796   796   796PRN / # OF OBS
         796   796   796   796   796   796     0     0     0PRN / # OF OBS
   G27   840   840   840   831   831   831   840   840   840PRN / # OF OBS
         831   831   831   835   835   835     0     0     0PRN / # OF OBS
   G28   842   842   842   807   807   807   838   838   838PRN / # OF OBS
         807   807   807   826   826   826     0     0     0PRN / # OF OBS
   G29   755   755   755   744   744   744   753   753   753PRN / # OF OBS
         744   744   744     0     0     0     0     0     0PRN / # OF OBS
   G30   740   740   740   740   740   740   740   740   740PRN / # OF OBS
         740   740   740   740   740   740     0     0     0PRN / # OF OBS
   G31   946   946   946   930   930   930   946   946   946PRN / # OF OBS
         930   930   930     0     0     0     0     0     0PRN / # OF OBS
   G32   983   983   983   945   945   945   981   981   981PRN / # OF OBS
         945   945   945   958   958   958     0     0     0PRN / # OF OBS
   R01   770   770   770   770   770   770   770   770   770PRN / # OF OBS
         758   758   758                                    PRN / # OF OBS
   R02   422   422   422   422   422   422   422   422   422PRN / # OF OBS
         422   422   422                                    PRN / # OF OBS
   R03   746   746   746   746   746   746   745   745   745PRN / # OF OBS
         743   743   743                                    PRN / # OF OBS
   R04   881   881   881   879   879   879   875   875   875PRN / # OF OBS
         824   824   824                                    PRN / # OF OBS
   R05  1030  1030  1030  1030  1030  1030  1030  1030  1030PRN / # OF OBS
        1015  1015  1015                                    PRN / # OF OBS
   R06   550   550   550   550   550   550    11    11    11PRN / # OF OBS
           1     1     1                                    PRN / # OF OBS
   R07   960   960   960   960   960   960   960   960   960PRN / # OF OBS
         956   956   956                                    PRN / # OF OBS
   R08   818   818   818   817   817   817   817   817   817PRN / # OF OBS
         811   811   811                                    PRN / # OF OBS
   R09   909   909   909   908   908   908   907   907   907PRN / # OF OBS
         890   890   890                                    PRN / # OF OBS
   R10  1015  1015  1015  1014  1014  1014    19    19    19PRN / # OF OBS
           1     1     1                                    PRN / # OF OBS
   R11  1105  1105  1105  1102  1102  1102  1105  1105  1105PRN / # OF OBS
        1096  1096  1096                                    PRN / # OF OBS
   R12   997   997   997   996   996   996   995   995   995PRN / # OF OBS
         980   980   980                                    PRN / # OF OBS
   R13   701   701   701   700   700   700   700   700   700PRN / # OF OBS
         679   679   679                                    PRN / # OF OBS
   R14   703   703   703   702   702   702   695   695   695PRN / # OF OBS
         684   684   684                                    PRN / # OF OBS
   R15   778   778   778   776   776   776   778   778   778PRN / # OF OBS
         773   773   773                                    PRN / # OF OBS
   R16   774   774   774   772   772   772   773   773   773PRN / # OF OBS
         760   760   760                                    PRN / # OF OBS
   R17   862   862   862   862   862   862   862   862   862PRN / # OF OBS
         858   858   858                                    PRN / # OF OBS
   R18   678   678   678   678   678   678   678   678   678PRN / # OF OBS
         665   665   665                                    PRN / # OF OBS
   R19   760   760   760   760   760   760   760   760   760PRN / # OF OBS
         744   744   744                                    PRN / # OF OBS
   R20   926   926   926   926   926   926   926   926   926PRN / # OF OBS
         878   878   878                                    PRN / # OF OBS
   R21   995   995   995   993   993   993   987   987   987PRN / # OF OBS
         955   955   955                                    PRN / # OF OBS
   R22   939   939   939   939   939   939   939   939   939PRN / # OF OBS
         938   938   938                                    PRN / # OF OBS
   R23   776   776   776   774   774   774    14    14    14PRN / # OF OBS
           0     0     0                                    PRN / # OF OBS
   R24   805   805   805   805   805   805   802   802   802PRN / # OF OBS
         779   779   779                                    PRN / # OF OBS
   R25   984   984   984   984   984   984   984   984   984PRN / # OF OBS
         981   981   981                                    PRN / # OF OBS
   E02   936   936   936   935   935   935   933   933   933PRN / # OF OBS
   E03   947   947   947   947   947   947   945   945   945PRN / # OF OBS
   E04   986   986   986   986   986   986   981   981   981PRN / # OF OBS
   E05  1095  1095  1095  1095  1095  1095  1095  1095  1095PRN / # OF OBS
   E07   733   733   733   733   733   733   732   732   732PRN / # OF OBS
   E08   715   715   715   715   715   715   709   709   709PRN / # OF OBS
   E09  1021  1021  1021  1021  1021  1021  1005  1005  1005PRN / # OF OBS
   E10  1247  1247  1247  1246  1246  1246  1233  1233  1233PRN / # OF OBS
   E11  1298  1298  1298  1298  1298  1298  1254  1254  1254PRN / # OF OBS
   E12  1053  1053  1053  1053  1053  1053  1036  1036  1036PRN / # OF OBS
   E13   172   172   172   172   172   172   172   172   172PRN / # OF OBS
   E15   798   798   798   798   798   798   786   786   786PRN / # OF OBS
   E19   702   702   702   702   702   702   655   655   655PRN / # OF OBS
   E21   261   261   261   261   261   261   249   249   249PRN / # OF OBS
   E24  1376  1376  1376  1375  1375  1375  1372  1372  1372PRN / # OF OBS
   E25  1280  1280  1280  1280  1280  1280  1273  1273  1273PRN / # OF OBS
   E26   356   356   356   356   356   356   355   355   355PRN / # OF OBS
   E27   583   583   583   583   583   583   582   582   582PRN / # OF OBS
   E30   974   974   974   974   974   974   974   974   974PRN / # OF OBS
   E31  1018  1018  1018  1018  1018  1018   985   985   985PRN / # OF OBS
   E33   694   694   694   694   694   694   688   688   688PRN / # OF OBS
   E34  1263  1263  1263  1263  1263  1263  1260  1260  1260PRN / # OF OBS
   E36  1286  1286  1286  1285  1285  1285  1247  1247  1247PRN / # OF OBS
This data is provided as a public service by NASA/JPL.      COMMENT
No warranty is expressed or implied regarding suitability   COMMENT
for use.  For further information, contact:                 COMMENT
ggnops at jpl dot nasa dot gov                              COMMENT
                                                            END OF HEADER
> 2023 11 23 00 00  0.0000000  0 24       -.000178853513
G01  24455575.627   128514929.843 6        40.250    24455576.147   128514927.839 4        25.000    24455578.087   100141506.014 6        37.500    24455578.287   100141504.999 4        25.000    24455573.497    95968936.659 4        25.000
G02  23070123.831   121234353.037 7        42.750    23070122.221   121234351.040 5        30.750                                                    23070120.521    94468334.916 5        30.750
G07  24375923.161   128096331.421 6        35.500    24375922.851   128096337.388 2        15.750    24375924.551    99815324.009 6        38.500    24375923.691    99815327.019 2        15.750
G08  21461843.727   112782790.943 8        48.500    21461843.627   112782775.935 6        40.750    21461846.407    87882695.132 8        50.250    21461845.567    87882690.128 6        40.750    21461838.167    84220916.156 6        37.000
G10  21374379.415   112323342.094 9        53.500    21374379.385   112323333.098 9        54.500    21374381.085    87524726.120 8        52.750    21374381.285    87524728.116 9        54.500    21374372.495    83877810.847 6        37.250
G16  21369627.330   112298179.878 8        49.000    21369626.610   112298173.881 7        41.750                                                    21369626.520    87505079.106 7        41.750
G18  24854758.618   130613197.198 6        38.250    24854758.788   130613114.212 4        28.500    24854759.318   101776665.818 7        45.000    24854759.298   101776572.802 4        28.500    24854757.698    97536012.275 5        31.000    24854758.398   130613226.224 6        39.750
G21  21746385.263   114278067.809 7        46.500    21746384.343   114278073.820 6        35.500                                                    21746383.893    89047860.926 6        35.500
G23  22451198.046   117981860.400 7        46.500    22451198.056   117981857.405 6        38.500    22451199.386    91933916.682 8        50.250    22451198.696    91933918.678 6        38.500    22451195.716    88103345.447 5        33.000    22451197.986   117981848.395 7        46.500
G26  23123602.248   121515420.123 6        39.750    23123601.528   121515410.137 6        38.000    23123605.228    94687353.942 6        41.250    23123604.948    94687349.944 6        38.000    23123597.498    90742051.379 4        26.000
G27  20243581.658   106380798.312 9        53.500    20243581.148   106380738.317 9        56.000    20243582.558    82894146.933 9        55.750    20243582.348    82894082.931 9        56.000    20243575.308    79440223.697 6        40.000
R04  22657745.006   121331447.563 7        45.500    22657745.136   121331197.574 7        44.750    22657752.246    94368721.255 7        46.500    22657752.186    94368712.254 7        44.750
R05  22173434.491   118529749.543 6        40.500    22173435.061   118529740.565 6        40.000    22173444.581    92189801.135 7        45.000    22173445.021    92189802.130 7        44.500
R09  23992808.563   128120165.729 6        38.000    23992808.433   128120168.717 6        36.000    23992823.513    99648990.323 7        41.750    23992823.783    99648979.329 6        39.500
R10  20931301.709   111575607.221 7        43.750    20931300.959   111575616.220 7        43.000
R11  20299591.472   108474894.810 8        52.750    20299591.952   108474871.819 8        51.000    20299599.342    84369359.794 8        51.250    20299599.432    84369344.784 8        50.500
R20  20327779.753   108701832.883 6        40.250    20327780.143   108701821.883 6        39.000    20327789.423    84545861.710 7        44.500    20327788.873    84545872.706 7        43.750
R21  20689771.505   110715195.196 8        50.000    20689771.495   110715190.205 8        49.750    20689780.105    86111847.446 8        49.750    20689779.825    86111830.440 8        48.750
R25  20428921.423   108974354.846 8        49.750    20428920.843   108974366.843 8        49.500    20428929.543    84757850.342 8        51.500    20428930.193    84757860.328 8        50.250
E12  27074127.643   142275525.489 6        38.500    27074131.703   109016309.862 6        40.500    27074122.583   106244709.540 3        18.750
E21  28219533.338   148294885.917 6        39.250    28219540.198   113628609.081 6        40.500    28219533.388   110739752.109 3        23.000
E26  24256956.117   127471708.205 8        51.750    24256959.837    97673257.388 9        55.000    24256950.817    95190057.107 5        33.500
E31  23916238.918   125680693.817 9        54.500    23916244.178    96300793.138 9        53.500    23916235.788    93852469.175 5        34.000
E33  23434254.373   123147863.191 8        49.750    23434257.523    94360055.925 9        55.750    23434249.393    91961073.334 6        35.500
> 2023 11 23 00 00 30.0000000  0 24       -.000178849243
G01  24435813.506   128411078.677 6        39.500    24435813.966   128411076.677 4        25.750    24435817.996   100060583.035 6        40.750    24435817.866   100060582.026 4        25.750    24435808.976    95891385.484 4        23.500
G02  23056550.615   121163030.260 7        42.000    23056550.135   121163028.257 5        31.250                                                    23056548.175    94412758.746 5        31.250
G07  24375420.297   128093671.133 6        37.750    24375418.407   128093677.118 3        17.500    24375418.527    99813251.081 6        38.500    24375419.087    99813254.055 3        17.500
G08  21450555.513   112723468.781 8        47.750    21450555.003   112723453.769 6        41.250    21450557.573    87836470.076 8        49.750    21450556.953    87836465.074 6        41.250    21450549.593    84176617.139 6        36.750
G10  21371178.215   112306518.266 8        53.250    21371177.875   112306509.267 9        54.500    21371179.485    87511616.655 8        52.500    21371179.595    87511618.648 9        54.500    21371171.525    83865247.597 6        37.250
G16  21384162.404   112374562.533 8        48.500    21384161.784   112374556.539 7        41.500                                                    21384161.774    87564598.038 7        41.500
G18  24873298.871   130710623.658 6        38.750    24873298.451   130710540.665 4        28.750    24873299.421   101852582.515 7        45.250    24873298.691   101852489.526 4        28.750    24873295.681    97608765.773 5        31.000    24873298.561   130710652.705 6        40.250
G21  21734932.462   114217880.099 7        45.250    21734930.892   114217886.094 6        35.750                                                    21734930.662    89000961.403 6        35.750
G23  22461432.803   118035640.310 7        47.000    22461432.243   118035637.329 6        38.500    22461432.823    91975823.114 8        50.000    22461432.593    91975825.110 6        38.500    22461429.203    88143505.779 5        33.000    22461432.233   118035628.312 7        47.000
G26  23143414.171   121619534.262 6        38.750    23143413.661   121619524.277 6        38.000    23143416.171    94768481.808 6        41.000    23143417.291    94768477.807 6        38.000    23143409.651    90819798.965 4        25.250
G27  20245118.228   106388873.273 8        53.250    20245117.898   106388813.275 9        56.000    20245119.368    82900439.092 9        55.500    20245119.008    82900375.090 9        56.000    20245112.048    79446253.676 6        40.250
R04  22661437.539   121351215.827 7        45.500    22661436.389   121350965.837 7        44.500    22661443.629    94384096.584 7        47.000    22661443.849    94384087.593 7        45.250
R05  22159251.658   118453925.795 6        41.250    22159251.028   118453916.784 6        40.500    22159260.748    92130827.124 7        44.750    22159260.528    92130828.113 7        44.500
R09  24018344.820   128256513.352 6        37.750    24018343.690   128256516.345 6        35.750    24018359.580    99755037.101 6        40.750    24018358.670    99755026.093 6        39.250
R10  20950772.019   111679398.190 7        43.250    20950771.709   111679407.195 7        42.750
R11  20296272.896   108457159.809 8        52.750    20296273.156   108457136.816 8        51.500    20296280.976    84355565.874 8        52.000    20296280.986    84355550.876 8        51.000
R20  20337505.029   108753843.674 6        40.250    20337505.509   108753832.680 6        39.250    20337517.279    84586314.537 7        45.000    20337515.459    84586325.532 7        43.750
R21  20681138.966   110669000.768 8        49.500    20681139.096   110668995.780 8        49.500    20681147.036    86075918.449 8        49.500    20681147.826    86075901.450 8        49.000
R25  20421093.108   108932600.507 8        49.750    20421093.868   108932612.506 8        49.500    20421101.098    84725374.753 8        50.750    20421101.588    84725384.747 8        49.500
E12  27060945.806   142206250.155 6        39.000    27060949.026   108963228.791 6        40.750    27060936.886   106192977.931 3        17.500
E21  28237270.631   148388098.253 6        37.750    28237278.841   113700031.191 7        41.750    28237272.411   110809358.344 3        22.500
E26  24266706.139   127522941.134 8        52.250    24266709.089    97712513.791 9        54.750    24266700.019    95228315.462 5        33.500
E31  23911780.738   125657264.561 9        54.750    23911785.688    96282840.844 9        53.500    23911777.318    93834973.302 5        33.750
E33  23431639.425   123134123.530 8        49.500    23431643.005    94349528.135 9        55.750    23431634.275    91950813.205 5        35.250
> 2023 11 23 00 01  0.0000000  0 24       -.000178849568
G01  24416079.241   128307372.936 6        37.250    24416079.251   128307370.937 4        24.500    24416081.131    99979773.436 6        39.750    24416083.441    99979772.419 4        24.500    24416075.861    95813942.944 4        24.750
G02  23043025.416   121091953.074 7        43.000    23043025.346   121091951.077 5        32.000                                                    23043022.156    94357373.934 5        32.000
G07  24375005.181   128091498.775 6        38.250    24375005.481   128091504.793 2        16.000    24375004.671    99811558.346 6        37.750    24375005.331    99811561.341 2        16.000
G08  21439305.745   112664349.830 7        47.000    21439305.395   112664334.822 6        41.250    21439307.395    87790403.379 8        49.750    21439306.595    87790398.364 6        41.250    21439299.565    84132469.875 6        37.000
G10  21368084.554   112290260.727 9        53.750    21368084.234   112290251.731 9        54.750    21368085.954    87498948.456 8        53.000    21368086.134    87498950.447 9        54.750    21368077.924    83853107.241 6        38.250
G16  21398775.213   112451353.448 8        48.750    21398774.693   112451347.451 7        41.750                                                    21398774.443    87624435.101 7        41.750
G18  24891837.251   130808040.534 6        38.500    24891836.071   130807957.535 4        28.750    24891837.321   101928491.760 7        45.500    24891837.231   101928398.753 4        28.750    24891833.841    97681512.120 5        30.750    24891836.901   130808069.547 6        40.000
G21  21723544.426   114158037.208 7        42.500    21723543.416   114158043.210 6        35.750                                                    21723543.116    88954330.605 6        35.750
G23  22471763.784   118089928.351 7        46.750    22471763.454   118089925.355 6        38.250    22471763.124    92018125.474 8        49.500    22471763.014    92018127.469 6        38.250    22471760.434    88184045.539 5        33.000    22471763.314   118089916.355 7        47.000
G26  23163258.724   121723815.625 6        39.000    23163257.464   121723805.624 6        37.500    23163261.204    94849739.935 7        42.000    23163261.254    94849735.938 6        37.500    23163253.884    90897671.329 4        26.250
G27  20246717.479   106397276.595 9        53.500    20246717.049   106397216.595 9        56.000    20246718.419    82906987.124 9        55.750    20246718.219    82906923.125 9        56.000    20246711.479    79452528.873 6        40.500
R04  22665270.727   121371743.323 7        46.500    22665271.117   121371493.327 7        45.500    22665277.737    94400062.419 7        47.250    22665277.317    94400053.423 7        45.500
R05  22145168.267   118378643.358 7        42.500    22145168.737   118378634.362 7        41.500    22145178.557    92072274.150 7        46.000    22145177.687    92072275.143 7        45.250
R09  24043869.684   128392815.131 6        37.500    24043869.464   128392818.140 6        35.750    24043884.124    99861048.233 6        39.750    24043885.234    99861037.228 6        38.750
R10  20970334.374   111783668.353 7        43.750    20970333.244   111783677.359 7        43.250
R11  20293108.559   108440249.189 8        53.000    20293108.429   108440226.200 8        51.500    20293115.939    84342413.179 8        51.250    20293115.959    84342398.172 8        50.500
R20  20347269.990   108806056.295 6        40.500    20347269.410   108806045.302 6        39.000    20347280.990    84626924.342 7        45.500    20347280.020    84626935.345 7        44.000
R21  20672558.762   110623084.867 8        49.250    20672558.432   110623079.866 8        49.250    20672567.192    86040206.088 8        49.000    20672566.352    86040189.082 8        48.500
R25  20413323.371   108891150.908 8        49.750    20413323.021   108891162.907 8        49.250    20413331.551    84693136.178 8        51.000    20413331.881    84693146.171 8        49.500
E12  27047790.656   142137121.659 6        38.500    27047793.386   108910260.237 6        40.250    27047786.346   106141355.964 3        19.250
E21  28255015.337   148481345.499 5        33.000    28255024.097   113771480.003 7        42.750    28255015.117   110878990.632 3        21.500
E26  24276480.325   127574306.913 8        52.000    24276483.785    97751871.978 9        54.750    24276474.365    95266673.034 5        33.000
E31  23907394.842   125634216.355 9        54.750    23907399.692    96265180.530 8        53.250    23907391.852    93817761.972 5        34.000
E33  23429073.295   123120636.403 8        49.750    23429076.495    94339193.848 9        55.750    23429067.755    91940741.645 5        35.000
> 2023 11 23 00 01 30.0000000  0 24       -.000178851616
G01  24396372.673   128203813.849 6        37.500    24396372.183   128203811.828 4        24.750    24396375.063    99899078.063 6        39.750    24396375.663    99899077.057 4        24.750    24396368.463    95736609.964 3        23.000
G02  23029547.627   121021122.025 7        42.750    23029546.057   121021120.032 5        31.750                                                    23029544.107    94302180.903 5        31.750
G07  24374684.558   128089813.543 6        37.000    24374684.828   128089819.492 2        15.250    24374684.388    99810245.104 6        36.500    24374682.898    99810248.091 2        15.250
G08  21428094.391   112605434.655 8        47.750    21428094.261   112605419.654 7        41.500    21428096.651    87744495.453 8        50.250    21428095.831    87744490.438 7        41.500    21428088.731    84088474.782 6        37.000
G10  21365098.564   112274569.982 9        53.500    21365098.494   112274560.986 9        55.000    21365100.024    87486721.910 8        52.750    21365100.424    87486723.902 9        55.000    21365092.144    83841390.150 6        38.250
G16  21413465.467   112528550.846 8        48.500    21413464.977   112528544.847 7        41.500                                                    21413464.547    87684588.899 7        41.500
G18  24910371.506   130905446.578 6        38.250    24910371.556   130905363.592 4        28.000    24910372.936   102004392.551 7        45.750    24910372.076   102004299.546 4        28.000    24910369.976    97754250.368 5        31.250    24910372.096   130905475.568 6        39.750
G21  21712222.075   114098539.532 7        43.750    21712221.515   114098545.528 6        36.500                                                    21712221.275    88907968.803 6        36.500
G23  22482190.333   118144722.582 7        46.750    22482190.193   118144719.593 6        37.500    22482189.843    92060822.264 8        48.750    22482189.963    92060824.260 6        37.500    22482186.683    88224963.314 5        32.500    22482190.293   118144710.588 7        46.750
G26  23183133.066   121828262.033 6        38.000    23183132.916   121828252.034 6        37.250    23183138.646    94931126.712 7        42.750    23183137.496    94931122.709 6        37.250    23183129.706    90975666.974 4        26.500
G27  20248378.994   106406008.586 8        53.250    20248378.724   106405948.587 9        56.000    20248380.414    82913791.270 9        56.000    20248379.944    82913727.269 9        56.000    20248372.994    79459049.509 6        40.250
R04  22669244.276   121393029.459 7        45.000    22669244.696   121392779.470 7        44.500    22669251.916    94416618.320 7        47.000    22669252.676    94416609.326 7        45.500
R05  22131188.353   118303906.040 7        44.000    22131188.063   118303897.052 7        42.250    22131197.943    92014145.180 7        45.750    22131197.133    92014146.180 7        45.000
R09  24069386.589   128529067.719 6        38.000    24069386.359   128529070.720 6        35.750    24069401.579    99967021.019 6        38.500    24069402.709    99967010.035 6        37.750
R10  20989983.730   111888413.416 7        44.250    20989983.320   111888422.411 7        43.250
R11  20290097.781   108424163.889 8        52.750    20290098.151   108424140.898 8        51.500    20290105.941    84329902.365 8        51.500    20290105.671    84329887.363 8        50.250
R20  20357069.437   108858469.226 6        40.750    20357071.517   108858458.235 6        39.250    20357082.317    84667689.935 7        45.250    20357081.307    84667700.935 7        44.000
R21  20664029.562   110577446.865 8        49.250    20664030.062   110577441.870 8        49.250    20664038.172    86004709.901 8        49.250    20664037.802    86004692.887 8        48.000
R25  20405609.554   108850005.571 8        49.750    20405609.724   108850017.576 8        49.750    20405618.164    84661134.266 8        51.000    20405617.934    84661144.261 8        49.250
E12  27034663.670   142068140.225 6        38.000    27034666.350   108857404.386 6        38.750    27034658.440   106089843.945 3        19.250
E21  28272766.758   148574626.131 6        40.250    28272774.838   113842954.359 7        42.750    28272767.668   110948647.756 3        22.500
E26  24286279.845   127625804.430 8        52.000    24286283.445    97791331.111 9        55.000    24286275.275    95305128.959 5        33.250
E31  23903081.648   125611550.144 9        54.750    23903086.438    96247812.917 8        53.250    23903078.548    93800835.924 5        34.500
E33  23426554.576   123107401.201 8        49.500    23426557.956    94329052.595 9        55.750    23426549.046    91930858.214 5        35.250
> 2023 11 23 00 02  0.0000000  0 24       -.000178851605
G01  24376692.857   128100402.576 6        37.250    24376693.307   128100400.573 4        26.250    24376698.247    99818497.933 7        41.500    24376696.847    99818496.933 4        26.250    24376689.657    95659387.320 3        21.000
G02  23016114.043   120950537.177 6        40.500    23016114.103   120950535.177 5        31.500                                                    23016112.503    94247179.745 5        31.500
G07  24374458.644   128088615.175 6        37.500    24374455.394   128088621.128 2        14.000    24374457.404    99809311.266 6        38.500    24374455.814    99809314.252 2        14.000
G08  21416922.422   112546724.825 8        49.000    21416922.122   112546709.817 7        41.500    21416924.002    87698747.519 8        49.500    21416923.572    87698742.511 7        41.500    21416916.382    84044633.026 6        37.250
G10  21362220.830   112259446.653 9        53.500    21362220.520   112259437.659 9        55.000    21362222.730    87474937.511 8        53.000    21362222.670    87474939.505 9        55.000    21362214.390    83830096.760 6        38.500
G16  21428232.990   112606152.753 8        48.250    21428232.610   112606146.751 7        41.750                                                    21428231.760    87745057.900 7        41.750
G18  24928905.246   131002840.551 6        36.750    24928905.206   131002757.558 4        27.500    24928906.796   102080283.919 7        45.750    24928905.746   102080190.928 4        27.500    24928903.476    97826979.615 5        31.000    24928905.806   131002869.546 6        38.500
G21  21700966.043   114039386.996 7        45.250    21700964.863   114039393.004 6        36.500                                                    21700964.743    88861875.943 6        36.500
G23  22492712.979   118200021.099 7        45.750    22492712.849   118200018.109 6        37.000    22492713.389    92103912.001 8        49.750    22492713.199    92103914.001 6        37.000    22492710.189    88266257.621 5        32.250    22492712.719   118200009.090 7        46.000
G26  23203039.862   121932871.147 6        38.500    23203039.892   121932861.148 6        37.000    23203043.962    95012640.279 6        41.250    23203043.422    95012636.277 6        37.000    23203035.322    91053784.157 4        23.750
G27  20250103.189   106415069.592 8        53.250    20250102.879   106415009.594 9        56.000    20250104.529    82920851.779 9        55.750    20250104.159    82920787.777 9        56.000    20250097.409    79465815.822 6        40.500
R04  22673361.339   121415073.554 7        44.500    22673361.409   121414823.558 7        44.000    22673368.559    94433763.751 7        46.000    22673368.809    94433754.757 7        44.500
R05  22117308.979   118229718.078 7        43.000    22117309.459   118229709.079 7        42.000    22117317.839    91956443.450 7        45.500    22117318.539    91956444.441 7        45.000
R09  24094894.385   128665267.556 6        39.500    24094893.525   128665270.554 6        37.750    24094908.145   100072952.863 6        38.000    24094908.605   100072941.856 6        36.750
R10  21009722.921   111993629.328 7        43.000    21009721.181   111993638.330 7        42.500
R11  20287243.296   108408904.787 8        53.250    20287243.336   108408881.792 8        52.250    20287250.436    84318034.166 8        51.750    20287250.406    84318019.161 8        50.250
R20  20366909.066   108911081.650 6        40.250    20366909.776   108911070.656 6        39.500    20366921.216    84708610.687 7        45.250    20366920.636    84708621.684 7        43.750
R21  20655553.052   110532086.369 8        49.250    20655553.382   110532081.375 8        49.500    20655561.182    85969429.498 8        49.250    20655560.732    85969412.490 8        48.000
R25  20397953.449   108809164.083 8        50.750    20397953.479   108809176.083 8        50.000    20397962.359    84629368.660 8        51.500    20397962.419    84629378.652 8        50.000
E12  27021565.260   141999306.019 6        37.750    27021567.480   108804661.313 6        38.750    27021560.160   106038441.823 3        19.500
E21  28290524.283   148667938.779 6        38.750    28290531.603   113914453.311 7        41.750    28290524.763   111018328.904 4        23.750
E26  24296104.937   127677432.517 8        52.500    24296107.877    97830890.277 9        55.000    24296099.557    95343682.380 5        33.250
E31  23898840.933   125589266.950 9        54.500    23898845.983    96230738.774 9        53.500    23898838.933    93784195.854 5        34.500
E33  23424083.793   123094417.237 8        49.500    23424087.233    94319103.854 9        55.750    23424078.623    91921162.424 6        35.500
> 2023 11 23 00 02 30.0000000  0 24       -.000178850616
G01  24357043.796   127997140.246 6        38.750    24357043.476   127997138.242 4        27.750    24357047.376    99738033.827 7        41.750    24357048.326    99738032.826 4        27.750    24357041.256    95582275.823 4        24.250
G02  23002729.971   120880199.110 7        41.500    23002729.051   120880197.112 5        32.000                                                    23002727.971    94192370.896 5        32.000
G07  24374322.609   128087902.909 6        39.250    24374322.099   128087908.892 2        14.750    24374320.599    99808756.253 6        36.500    24374317.819    99808759.268 2        14.750
G08  21405789.140   112488221.351 8        49.000    21405788.840   112488206.338 6        41.250    21405791.100    87653160.407 8        50.250    21405790.450    87653155.391 6        41.250    21405784.100    84000945.369 6        37.500
G10  21359451.064   112244891.354 9        53.750    21359450.634   112244882.359 9        55.000    21359452.374    87463595.725 8        53.000    21359452.724    87463597.719 9        55.000    21359444.284    83819227.549 6        38.250
G16  21443076.594   112684157.268 8        48.750    21443076.134   112684151.271 6        41.000                                                    21443075.154    87805840.632 6        41.000
G18  24947436.423   131100221.291 6        36.250    24947436.283   131100138.291 4        27.000    24947436.893   102156164.992 7        45.500    24947436.803   102156071.987 4        27.000    24947435.543    97899698.950 5        31.250    24947436.233   131100250.298 6        37.250
G21  21689775.286   113980579.768 7        46.750    21689774.056   113980585.775 6        36.750                                                    21689774.176    88816052.144 6        36.750
G23  22503331.664   118255821.964 7        46.000    22503331.474   118255818.968 6        37.250    22503331.814    92147393.185 8        49.750    22503331.494    92147395.179 6        37.250    22503328.124    88307927.121 5        32.000    22503331.034   118255809.953 7        46.250
G26  23222977.774   122037640.656 6        39.000    23222978.094   122037630.673 5        34.500    23222977.384    95094278.858 6        36.750    23222977.204    95094274.857 5        34.500    23222970.214    91132021.148 4        24.500
G27  20251890.482   106424460.054 9        53.750    20251889.812   106424400.056 9        56.000    20251891.292    82928169.015 9        55.750    20251891.042    82928105.014 9        56.000    20251884.262    79472828.174 6        40.750
R04  22677618.776   121437875.262 7        44.500    22677619.476   121437625.269 7        44.000    22677627.346    94451498.456 7        46.250    22677626.726    94451489.450 7        44.750
R05  22103533.422   118156083.786 7        43.500    22103534.482   118156074.792 7        42.000    22103543.202    91899172.362 7        44.750    22103543.422    91899173.358 7        44.750
R09  24120388.562   128801411.061 6        39.500    24120389.542   128801414.076 6        37.500    24120405.422   100178840.848 6        37.750    24120404.342   100178829.861 6        37.000
R10  21029547.915   112099311.874 7        43.250    21029547.165   112099320.879 7        42.500
R11  20284542.747   108394472.667 9        53.750    20284542.587   108394449.672 8        52.500    20284549.967    84306809.184 8        51.500    20284549.547    84306794.178 8        50.250
R20  20376786.411   108963891.500 6        40.750    20376784.981   108963880.504 6        39.500    20376796.251    84749684.995 7        45.000    20376795.651    84749695.990 7        43.750
R21  20647128.078   110487003.034 8        49.750    20647128.518   110486998.036 8        49.500    20647136.288    85934364.676 8        49.250    20647135.728    85934347.667 8        48.000
R25  20390354.514   108768625.839 8        50.750    20390354.144   108768637.838 8        50.000    20390362.364    84597838.921 8        51.500    20390363.124    84597848.913 8        50.000
E12  27008492.584   141930619.327 6        37.000    27008496.904   108752031.294 6        39.000    27008489.344   105987149.841 3        19.500
E21  28308286.117   148761281.981 6        37.750    28308294.677   113985975.703 7        42.250    28308288.187   111088032.877 4        23.750
E26  24305953.636   127729190.047 8        52.000    24305957.116    97870548.636 9        55.000    24305948.996    95382332.456 5        33.500
E31  23894673.800   125567367.744 9        54.500    23894678.670    96213958.864 9        53.500    23894670.490    93767842.554 5        34.500
E33  23421661.103   123081683.890 8        49.750    23421664.253    94309347.143 9        55.750    23421656.023    91911653.777 6        35.500
> 2023 11 23 00 03  0.0000000  0 24       -.000178849447
G01  24337422.183   127894028.112 6        40.250    24337422.253   127894026.115 4        28.250    24337426.563    99657686.771 6        41.000    24337425.883    99657685.771 4        28.250    24337418.333    95505276.577 4        26.250
G02  22989392.321   120810107.907 7        42.000    22989391.031   120810105.908 5        32.000                                                    22989390.431    94137754.404 5        32.000
G07  24374279.719   128087676.079 6        37.750    24374277.329   128087682.078 2        14.500    24374276.869    99808579.510 6        36.500    24374276.649    99808582.511 2        14.500
G08  21394695.888   112429925.436 8        49.000    21394695.628   112429910.432 7        41.500    21394698.218    87607735.022 8        50.250    21394697.278    87607730.014 7        41.500    21394690.458    83957412.721 6        37.500
G10  21356789.283   112230904.131 8        53.250    21356788.943   112230895.135 9        55.000    21356790.823    87452696.598 8        53.000    21356790.773    87452698.591 9        55.000    21356782.413    83808782.552 6        38.500
G16  21457996.721   112762562.438 8        48.500    21457995.761   112762556.439 6        40.750                                                    21457994.951    87866935.557 6        40.750
G18  24965964.962   131197587.526 6        38.000    24965964.712   131197504.547 4        28.750    24965965.292   102232034.743 7        45.500    24965964.772   102231941.747 4        28.750    24965962.952    97972407.470 5        31.250    24965964.722   131197616.532 6        38.750
G21  21678650.666   113922117.738 7        46.750    21678649.286   113922123.733 6        37.000                                                    21678649.196    88770497.363 6        37.000
G23  22514045.051   118312123.189 7        45.750    22514045.011   118312120.183 6        37.250    22514046.281    92191264.265 8        50.000    22514045.551    92191266.267 6        37.250    22514041.591    88349970.235 5        31.750    22514045.251   118312111.198 7        46.250
G26  23242944.821   122142568.371 6        39.750    23242944.361   122142558.378 5        34.750    23242945.561    95176040.768 6        36.750    23242945.541    95176036.749 5        34.750    23242940.011    91210376.237 4        25.250
G27  20253739.790   106434180.253 9        53.500    20253739.500   106434120.260 9        56.000    20253741.010    82935743.190 9        56.000    20253740.760    82935679.187 9        56.000    20253734.230    79480086.757 6        40.750
R04  22682018.797   121461433.756 7        45.000    22682019.167   121461183.758 7        43.750    22682025.447    94469821.730 7        46.250    22682026.417    94469812.725 7        45.500
R05  22089864.017   118083006.691 7        43.000    22089863.497   118082997.684 7        41.750    22089873.157    91842334.617 7        45.000    22089872.737    91842335.613 7        44.750
R09  24145874.425   128937494.824 6        39.750    24145875.205   128937497.819 6        37.000    24145894.405   100284682.374 6        40.500    24145892.855   100284671.374 6        38.750
R10  21049459.443   112205457.353 7        43.000    21049459.893   112205466.362 7        42.250
R11  20281995.966   108380868.305 8        53.250    20281996.326   108380845.309 8        51.750    20282003.556    84296228.007 8        52.000    20282003.916    84296213.006 8        50.250
R20  20386698.999   109016898.242 6        40.750    20386698.419   109016887.248 6        39.750    20386708.519    84790912.433 7        44.750    20386708.429    84790923.429 7        43.500
R21  20638755.012   110442196.264 8        49.500    20638755.152   110442191.266 8        49.250    20638762.632    85899514.976 8        49.250    20638762.922    85899497.964 8        48.000
R25  20382811.544   108728390.436 8        51.250    20382811.524   108728402.441 8        50.000    20382820.044    84566544.726 8        51.500    20382819.924    84566554.722 8        50.000
E12  26995450.664   141862080.408 6        37.750    26995454.384   108699514.504 6        38.250    26995447.134   105935968.249 3        20.500
E21  28326054.061   148854654.611 6        36.250    28326063.431   114057520.577 7        42.250    28326056.441   111157758.730 4        24.000
E26  24315827.190   127781075.917 8        52.000    24315830.560    97910305.332 9        54.750    24315822.880    95421078.412 5        33.500
E31  23890579.761   125545853.483 9        54.250    23890584.681    96197473.911 9        53.750    23890576.551    93751776.692 5        34.500
E33  23419285.423   123069200.457 8        49.750    23419288.573    94299781.913 9        55.750    23419280.493    91902331.709 6        35.500
> 2023 11 23 00 03 30.0000000  0 24       -.000178852039
G01  24317828.657   127791067.246 6        39.500    24317829.217   127791065.265 4        25.500    24317832.327    99577457.550 6        39.000    24317832.407    99577456.561 4        25.500    24317826.647    95428390.280 4        26.000
G02  22976100.893   120740263.882 7        42.250    22976100.853   120740261.881 5        32.250                                                    22976099.263    94083330.498 5        32.250
G07  24374327.705   128087934.223 6        37.250    24374325.805   128087940.246 2        11.750    24374326.305    99808780.648 6        35.750    24374326.235    99808783.647 2        11.750
G08  21383642.069   112371837.986 8        49.500    21383641.809   112371822.981 7        41.750    21383644.459    87562472.087 8        50.500    21383644.099    87562467.076 7        41.750    21383636.869    83914035.745 6        37.250
G10  21354235.946   112217486.034 9        53.750    21354235.626   112217477.037 9        55.000    21354237.036    87442240.953 8        52.750    21354237.456    87442242.942 9        55.000    21354229.346    83798762.561 6        38.500
G16  21472992.087   112841366.489 8        47.750    21472991.607   112841360.483 6        40.500                                                    21472990.997    87928341.289 6        40.500
G18  24984490.508   131294938.072 6        40.500    24984490.388   131294855.055 5        29.500    24984490.098   102307892.283 7        45.000    24984490.328   102307799.278 5        29.500    24984488.828    98045104.264 5        30.500    24984490.708   131294967.060 6        40.750
G21  21667591.054   113864001.130 8        47.500    21667590.594   113864007.137 6        36.500                                                    21667589.234    88725211.751 6        36.500
G23  22524854.071   118368922.871 7        45.500    22524853.841   118368919.888 6        37.000    22524853.521    92235523.752 8        48.500    22524853.461    92235525.758 6        37.000    22524850.291    88392385.608 5        31.750    22524853.931   118368910.882 7        46.500
G26  23262940.289   122247651.965 6        38.000    23262939.979   122247641.977 6        36.250    23262944.109    95257924.068 6        40.750    23262945.099    95257920.044 6        36.250    23262935.879    91288847.745 4        25.250
G27  20255652.411   106444230.616 8        53.250    20255651.981   106444170.613 9        56.000    20255653.431    82943574.626 9        56.000    20255653.301    82943510.623 9        56.000    20255646.461    79487591.883 6        40.750
R04  22686560.362   121485748.583 7        44.250    22686559.622   121485498.596 7        43.500    22686567.192    94488733.276 7        47.000    22686567.422    94488724.280 7        45.750
R05  22076297.344   118010490.706 7        42.750    22076298.634   118010481.700 7        42.000    22076307.364    91785933.325 7        45.250    22076306.734    91785934.323 7        44.500
R09  24171348.639   129073515.700 6        39.500    24171348.489   129073518.710 6        37.000    24171365.589   100390474.980 6        41.250    24171367.049   100390463.983 6        40.000
R10  21069458.448   112312061.302 7        43.500    21069458.728   112312070.300 7        42.500
R11  20279605.483   108368092.476 8        52.750    20279605.733   108368069.478 8        51.750    20279612.643    84286291.235 8        51.750    20279612.673    84286276.231 8        50.000
R20  20396646.241   109070099.134 6        40.750    20396646.801   109070088.139 6        39.750    20396657.221    84832290.888 7        44.750    20396656.931    84832301.882 7        43.500
R21  20630433.811   110397665.787 8        50.000    20630433.791   110397660.794 8        49.750    20630441.231    85864880.172 8        48.500    20630440.971    85864863.161 8        47.750
R25  20375325.572   108688457.398 8        51.750    20375325.522   108688469.397 8        50.500    20375333.702    84535485.714 8        51.500    20375334.022    84535495.706 8        50.250
E12  26982437.511   141793689.447 6        38.500    26982440.051   108647111.069 6        39.000    26982433.901   105884897.137 3        20.000
E21  28343828.514   148948055.186 5        33.750    28343837.134   114129086.781 7        42.750    28343830.064   111227505.452 3        22.500
E26  24325724.861   127833088.975 8        52.250    24325728.271    97950159.488 9        54.750    24325719.751    95459919.278 5        33.250
E31  23886559.248   125524725.094 9        54.250    23886564.048    96181284.620 9        53.750    23886556.048    93735999.008 5        34.500
E33  23416957.256   123056966.261 8        49.750    23416960.536    94290407.658 9        56.000    23416952.156    91893195.767 6        35.750
> 2023 11 23 00 04  0.0000000  0 24       -.000178848907
G01  24298264.232   127688258.728 6        37.500    24298264.392   127688256.718 4        23.750    24298267.282    99497347.087 6        38.250    24298268.172    99497346.073 4        23.750    24298262.252    95351617.766 4        26.250
G02  22962858.333   120670667.531 7        42.750    22962857.193   120670665.522 5        33.000                                                    22962854.673    94029099.559 5        33.000
G07  24374468.754   128088676.598 6        39.000    24374468.834   128088682.613 2        14.000    24374466.584    99809359.103 5        35.000    24374465.484    99809362.094 2        14.000
G08  21372628.243   112313960.071 8        49.250    21372628.123   112313945.062 7        41.750    21372630.123    87517372.418 8        50.000    21372629.683    87517367.411 7        41.750    21372622.473    83870815.233 6        37.000
G10  21351791.112   112204637.404 9        53.750    21351790.582   112204628.410 9        55.000    21351792.762    87432229.050 8        53.250    21351792.602    87432231.040 9        55.000    21351784.552    83789167.822 6        38.750
G16  21488063.784   112920567.454 8        47.500    21488063.064   112920561.459 6        41.000                                                    21488062.784    87990056.313 6        41.000
G18  25003013.053   131392271.728 6        41.250    25003012.423   131392188.728 5        29.500    25003013.413   102383736.682 7        45.500    25003012.643   102383643.670 5        29.500    25003010.193    98117788.507 5        30.250    25003013.303   131392300.751 7        42.000
G21  21656598.278   113806230.217 8        47.750    21656596.628   113806236.213 6        36.250                                                    21656595.238    88680195.458 6        36.250
G23  22535757.419   118426218.956 7        46.000    22535757.419   118426215.969 6        36.750    22535756.629    92280170.046 8        48.500    22535756.199    92280172.043 6        36.750    22535753.449    88435171.636 5        32.000    22535757.189   118426206.954 7        46.250
G26  23282967.297   122352889.209 6        38.000    23282965.647   122352879.211 6        36.000    23282969.717    95339927.038 6        41.000    23282970.417    95339923.029 6        36.000    23282962.647    91367433.930 4        25.250
G27  20257627.764   106454611.405 8        53.000    20257627.414   106454551.409 9        55.500    20257628.984    82951663.546 9        55.750    20257628.694    82951599.543 9        55.500    20257621.924    79495343.760 6        40.750
R04  22691239.989   121510818.790 7        43.000    22691240.759   121510568.793 7        42.750    22691248.849    94508232.326 7        46.750    22691248.939    94508223.336 7        45.000
R05  22062838.095   117938540.145 7        43.500    22062838.295   117938531.148 7        42.000    22062847.905    91729971.812 7        46.500    22062847.895    91729972.809 7        45.000
R09  24196808.675   129209470.162 6        38.500    24196809.615   129209473.162 6        37.000    24196828.335   100496215.908 7        42.500    24196828.075   100496204.901 6        40.250
R10  21089541.683   112419119.450 7        43.000    21089542.403   112419128.454 7        42.500
R11  20277370.209   108356145.802 8        53.250    20277370.149   108356122.809 8        52.000    20277376.939    84276999.374 8        51.500    20277376.539    84276984.370 8        50.000
R20  20406633.831   109123493.969 6        40.750    20406632.071   109123482.974 6        39.750    20406642.501    84873820.205 7        44.750    20406642.321    84873831.199 7        43.250
R21  20622163.495   110353410.965 8        49.250    20622163.535   110353405.975 8        49.000    20622171.905    85830459.757 8        49.500    20622171.425    85830442.751 8        48.500
R25  20367895.647   108648826.221 8        51.250    20367895.657   108648838.217 8        50.500    20367905.127    84504661.486 8        52.000    20367905.157    84504671.469 8        50.750
E12  26969450.763   141725446.769 6        38.750    26969453.903   108594821.255 6        38.750    26969446.353   105833936.719 3        19.500
E21  28361608.010   149041482.231 5        32.500    28361616.570   114200673.278 7        42.750    28361609.560   111297271.888 3        22.250
E26  24335646.876   127885228.128 8        52.000    24335649.986    97990110.261 9        54.500    24335641.576    95498854.390 5        33.250
E31  23882612.099   125503983.536 9        54.000    23882617.049    96165391.735 9        53.500    23882608.889    93720510.182 5        34.250
E33  23414676.506   123044980.708 8        49.500    23414679.716    94281223.927 9        55.500    23414671.936    91884245.554 6        35.750
> 2023 11 23 00 04 30.0000000  0 24       -.000178851733
G01  24278730.363   127585603.800 6        38.000    24278729.383   127585601.804 4        25.250    24278733.903    99417356.306 6        40.000    24278734.123    99417355.297 4        25.250    24278727.093    95274959.943 4        26.000
G02  22949661.012   120601319.097 7        42.500    22949660.282   120601317.108 5        33.000                                                    22949658.132    93975061.817 5        33.000
G07  24374703.253   128089902.559 6        38.750    24374702.083   128089908.573 2        13.500    24374701.323    99810314.364 5        35.250    24374700.673    99810317.357 2        13.500
